name,pop,lat,lon
Akron,36.0,41.0814447,-81.51900529999999
Albany-Schenectady-Troy,719.0,42.7636479,-73.65362089999999
Albuquerque,176.0,35.0843859,-106.650422
Allentown-Bethlehem-Easton,421.0,40.7291847,-75.2479061
Anchorage,179.0,61.2180556,-149.9002778
Ann Arbor,868.0,42.2808256,-83.7430378
Atlanta-Sandy Springs-Roswell,4332.0,33.8498184,-84.4382721
Atlantic City-Hammonton,230.0,39.610404,-74.8226529
Augusta-Richmond County,66.0,33.4734978,-82.0105148
Austin-Round Rock,1975.0,30.5082551,-97.678896
Bakersfield,532.0,35.3732921,-119.0187125
Baltimore-Columbia-Towson,4798.0,39.372594,-76.64127119999999
Bangor,117.0,44.8016128,-68.7712257
Beaumont-Port Arthur,150.0,30.080174,-94.1265562
Bellingham,351.0,48.7519112,-122.4786854
Binghamton,37.0,42.09868669999999,-75.91797380000001
Birmingham-Hoover,491.0,33.4053867,-86.8113781
Blacksburg-Christiansburg-Radford,264.0,37.1753479,-80.54384499999999
Bloomington,145.0,39.165325,-86.52638569999999
Boise City,234.0,43.6150186,-116.2023137
Boston-Cambridge-Newton,5818.0,42.3600709,-71.0588305
Bridgeport-Stamford-Norwalk,1003.0,41.2559654,-73.37086959999999
Buffalo-Cheektowaga-Niagara Falls,207.0,42.8518007,-78.74762079999999
Burlington-South Burlington,429.0,44.4758825,-73.21207199999999
Champaign-Urbana,200.0,40.1105875,-88.2072697
Charleston-North Charleston,413.0,32.8909785,-80.0691552
Chicago-Naperville-Elgin,7522.0,42.2162567,-87.8549755
Cincinnati,1132.0,39.0220536,-84.4382721
Clarksville,69.0,36.5297706,-87.3594528
Cleveland-Elyria,377.0,41.3683798,-82.10764859999999
Colorado Springs,348.0,38.8338816,-104.8213634
Columbia,315.0,34.0007104,-81.0348144
Columbus,1956.0,39.9611755,-82.99879419999999
Dallas-Fort Worth-Arlington,10860.0,32.7078751,-96.9209135
Dayton,271.0,39.7589478,-84.1916069
Deltona-Daytona Beach-Ormond Beach,80.0,29.0396219,-81.2518833
Denver-Aurora-Lakewood,2319.0,39.5142848,-104.8454619
Des Moines-West Des Moines,271.0,41.5638902,-93.75938409999999
Detroit-Warren-Dearborn,2000.0,42.341377,-83.275533
El Paso,137.0,31.7618778,-106.4850217
Fayetteville-Springdale-Rogers,314.0,36.0148605,-94.2333355
Fort Collins,105.0,40.5852602,-105.084423
Fort Wayne,163.0,41.079273,-85.1393513
Fresno,309.0,36.7377981,-119.7871247
Gainesville,681.0,29.6516344,-82.32482619999999
Gainesville,138.0,34.2978794,-83.8240663
Greensboro-High Point,356.0,35.9556923,-80.0053176
Greenville,243.0,35.612661,-77.3663538
Greenville-Anderson-Mauldin,40.0,34.8420019,-82.34518899999999
Harrisburg-Carlisle,225.0,40.3157054,-77.10249019999999
Hartford-West Hartford-East Hartford,451.0,41.7658043,-72.6733723
Homosassa Springs,166.0,28.8037059,-82.5761369
Houston-The Woodlands-Sugar Land,13923.0,29.5984434,-95.6225521
Huntsville,233.0,34.7303688,-86.5861037
Indianapolis-Carmel-Anderson,216.0,39.83618999999999,-86.17517590000001
Iowa City,199.0,41.6611277,-91.5301683
Ithaca,174.0,42.4439614,-76.5018807
Jacksonville,171.0,30.3321838,-81.65565099999999
Kalamazoo-Portage,93.0,42.2011538,-85.5800022
Kansas City,733.0,39.0997265,-94.5785667
Knoxville,451.0,35.9606384,-83.9207392
Lafayette-West Lafayette,437.0,40.4258686,-86.90806549999999
Lakeland-Winter Haven,92.0,28.0222435,-81.7328567
Lansing-East Lansing,377.0,42.7369792,-84.48386540000001
Las Vegas-Henderson-Paradise,2728.0,36.0971945,-115.1466648
Lawrence,190.0,38.9716689,-95.2352501
Los Angeles-Long Beach-Anaheim,75393.0,34.0522166,-118.2436619
Louisville/Jefferson County,1004.0,38.2526647,-85.7584557
Lubbock,45.0,33.5778631,-101.8551665
Lynchburg,534.0,37.4137536,-79.14224639999999
Manchester-Nashua,351.0,42.83347939999999,-71.6673352
Memphis,465.0,35.0387247,-89.8505012
Merced,451.0,37.3021632,-120.4829677
Miami-Fort Lauderdale-West Palm Beach,2125.0,26.3013917,-80.6326916
Milwaukee-Waukesha-West Allis,464.0,43.0166806,-88.0070315
Minneapolis-St. Paul-Bloomington,1817.0,44.840798,-93.2982799
Modesto,167.0,37.6392595,-120.9970014
Myrtle Beach-Conway-North Myrtle Beach,285.0,33.9196567,-78.9288242
Napa,155.0,38.2975381,-122.286865
Nashville-Davidson--Murfreesboro--Franklin,204.0,36.2144014,-86.5804473
New Haven-Milford,313.0,41.2306979,-73.064036
New Orleans-Metairie,391.0,29.9840922,-90.1528519
New York-Newark-Jersey City,29328.0,40.7127761,-74.0059544
North Port-Sarasota-Bradenton,114.0,27.3959334,-82.5185837
Odessa,346.0,31.8456816,-102.3676431
Olympia-Tumwater,145.0,47.0073187,-122.9093063
Omaha-Council Bluffs,45.0,41.2619444,-95.8608333
Orlando-Kissimmee-Sanford,1543.0,28.5828156,-81.3399414
Oxnard-Thousand Oaks-Ventura,1125.0,34.1705609,-118.8375937
Palm Bay-Melbourne-Titusville,203.0,28.263933,-80.7214417
Pensacola-Ferry Pass-Brent,190.0,30.4332772,-87.19996599999999
Philadelphia-Camden-Wilmington,5574.0,39.9526322,-75.1652419
Phoenix-Mesa-Scottsdale,4129.0,33.4982289,-112.2384017
Pittsburgh,460.0,40.44062479999999,-79.9958864
Portland-South Portland,327.0,43.6575381,-70.2355228
Portland-Vancouver-Hillsboro,3893.0,45.65367579999999,-122.5462872
Providence-Warwick,741.0,41.8239891,-71.4128343
Provo-Orem,750.0,40.2968979,-111.6946475
Raleigh,1470.0,35.7795897,-78.6381787
Reno,308.0,39.5296329,-119.8138027
Richmond,921.0,37.5407246,-77.4360481
Riverside-San Bernardino-Ontario,9288.0,34.0633443,-117.6508876
Roanoke,244.0,37.2709704,-79.9414266
Rochester,399.0,43.15657789999999,-77.6088465
Rockford,135.0,42.2711311,-89.0939952
Sacramento--Roseville--Arden-Arcade,2532.0,38.6008071,-121.3770336
St. Louis,1368.0,38.6270025,-90.19940419999999
Salinas,262.0,36.6777372,-121.6555013
Salt Lake City,850.0,40.7607793,-111.8910474
San Antonio-New Braunfels,1136.0,29.4249213,-98.4930675
San Diego-Carlsbad,6324.0,33.1580933,-117.3505939
San Francisco-Oakland-Hayward,27360.0,37.6687665,-122.0809964
San Jose-Sunnyvale-Santa Clara,29144.0,37.36883,-122.0363496
San Luis Obispo-Paso Robles-Arroyo Grande,309.0,35.6368759,-120.6545022
Santa Cruz-Watsonville,401.0,36.910231,-121.7568946
Santa Maria-Santa Barbara,520.0,34.9530337,-120.4357191
Santa Rosa,763.0,38.440429,-122.7140548
Scranton--Wilkes-Barre--Hazleton,212.0,41.2459149,-75.88130749999999
Seattle-Tacoma-Bellevue,15554.0,47.6061031,-122.3320534
Spokane-Spokane Valley,82.0,47.6732281,-117.2393748
Springfield,516.0,39.78172130000001,-89.6501481
Springfield,90.0,37.2089572,-93.29229889999999
State College,165.0,40.7933949,-77.8600012
Stockton-Lodi,1477.0,38.1157766,-121.2696713
Syracuse,62.0,43.0481221,-76.14742439999999
Tampa-St. Petersburg-Clearwater,1029.0,28.274347,-82.38857829999999
Toledo,277.0,41.6528052,-83.5378674
Trenton,390.0,40.2205824,-74.759717
Tucson,869.0,32.2226066,-110.9747108
Urban Honolulu,1699.0,21.3069444,-157.8583333
Utica-Rome,44.0,43.100903,-75.232664
Vallejo-Fairfield,376.0,38.1040864,-122.2566367
Virginia Beach-Norfolk-Newport News,664.0,36.8507689,-76.28587259999999
Washington-Arlington-Alexandria,10616.0,39.1289725,-77.3783789
Wichita,285.0,37.68717609999999,-97.33005299999999
Winston-Salem,205.0,36.09985959999999,-80.244216
Worcester,185.0,42.2625932,-71.8022934
Yakima,95.0,46.6020711,-120.5058987
York-Hanover,299.0,39.8006553,-76.9830358
Youngstown-Warren-Boardman,199.0,41.291972,-80.54384499999999